{
    "data": {
      "trafficRegistrationPoints": [
        {
          "id": "52742V2282262",
          "name": "Ørbekk",
          "location": {
            "coordinates": {
              "latLon": {
                "lat": 60.41426,
                "lon": 11.241171
              }
            }
          }
        },
        {
          "id": "41517V704478",
          "name": "BASTERUD",
          "location": {
            "coordinates": {
              "latLon": {
                "lat": 60.769163,
                "lon": 11.171156
              }
            }
          }
        },
        {
          "id": "24748V22148",
          "name": "Pinesund",
          "location": {
            "coordinates": {
              "latLon": {
                "lat": 58.798454,
                "lon": 9.054728
              }
            }
          }
        },
        {
          "id": "99015V249528",
          "name": "Hjelset øst",
          "location": {
            "coordinates": {
              "latLon": {
                "lat": 62.787333,
                "lon": 7.521145
              }
            }
          }
        },
        {
          "id": "65271V443150",
          "name": "Vestby syd ny",
          "location": {
            "coordinates": {
              "latLon": {
                "lat": 59.606039,
                "lon": 10.735925
              }
            }
          }
        },
        {
          "id": "04474V1060615",
          "name": "Vingrom sør",
          "location": {
            "coordinates": {
              "latLon": {
                "lat": 61.035831,
                "lon": 10.440602
              }
            }
          }
        },
        {
          "id": "17549V578615",
          "name": "Brekkvasselv",
          "location": {
            "coordinates": {
              "latLon": {
                "lat": 64.849079,
                "lon": 13.025441
              }
            }
          }
        },
        {
          "id": "03016V805614",
          "name": "Tøsdalskrysset nord",
          "location": {
            "coordinates": {
              "latLon": {
                "lat": 60.208177,
                "lon": 5.447758
              }
            }
          }
        },
        {
          "id": "96571V444221",
          "name": "Jessheim nord flyplasskrysset",
          "location": {
            "coordinates": {
              "latLon": {
                "lat": 60.160321,
                "lon": 11.154181
              }
            }
          }
        },
        {
          "id": "26714V180853",
          "name": "Strømsåstunnelen",
          "location": {
            "coordinates": {
              "latLon": {
                "lat": 59.731768,
                "lon": 10.182447
              }
            }
          }
        },
        {
          "id": "17684V2460285",
          "name": "Dr. Eufemias Gt. Vestgående Datter",
          "location": {
            "coordinates": {
              "latLon": {
                "lat": 59.908734,
                "lon": 10.754618
              }
            }
          }
        },
        {
          "id": "33412V121301",
          "name": "Narvigbakken",
          "location": {
            "coordinates": {
              "latLon": {
                "lat": 58.164418,
                "lon": 8.043659
              }
            }
          }
        },
        {
          "id": "19367V1911018",
          "name": "Knarvik",
          "location": {
            "coordinates": {
              "latLon": {
                "lat": 60.545749,
                "lon": 5.28392
              }
            }
          }
        },
        {
          "id": "82819V248945",
          "name": "Moa nord",
          "location": {
            "coordinates": {
              "latLon": {
                "lat": 62.468288,
                "lon": 6.352373
              }
            }
          }
        },
        {
          "id": "31818V444229",
          "name": "Kjørbotunnelen ",
          "location": {
            "coordinates": {
              "latLon": {
                "lat": 59.90773,
                "lon": 10.483825
              }
            }
          }
        },
        {
          "id": "57929V705247",
          "name": "Øyermoen",
          "location": {
            "coordinates": {
              "latLon": {
                "lat": 60.252424,
                "lon": 12.45598
              }
            }
          }
        },
        {
          "id": "04512V930297",
          "name": "Vedbotn",
          "location": {
            "coordinates": {
              "latLon": {
                "lat": 70.776832,
                "lon": 25.631609
              }
            }
          }
        },
        {
          "id": "55982V384008",
          "name": "Ljøsne",
          "location": {
            "coordinates": {
              "latLon": {
                "lat": 61.049293,
                "lon": 7.59463
              }
            }
          }
        },
        {
          "id": "76078V705182",
          "name": "UTHUS S",
          "location": {
            "coordinates": {
              "latLon": {
                "lat": 60.716225,
                "lon": 11.245311
              }
            }
          }
        },
        {
          "id": "60900V248916",
          "name": "Molde fergekai øst",
          "location": {
            "coordinates": {
              "latLon": {
                "lat": 62.737082,
                "lon": 7.178031
              }
            }
          }
        },
        {
          "id": "45383V319532",
          "name": "Haukås",
          "location": {
            "coordinates": {
              "latLon": {
                "lat": 59.347443,
                "lon": 5.453745
              }
            }
          }
        },
        {
          "id": "22331V248904",
          "name": "Eksetstranda",
          "location": {
            "coordinates": {
              "latLon": {
                "lat": 62.159291,
                "lon": 6.042887
              }
            }
          }
        },
        {
          "id": "50741V1751361",
          "name": "Tjorekjærra",
          "location": {
            "coordinates": {
              "latLon": {
                "lat": 58.310476,
                "lon": 8.519704
              }
            }
          }
        },
        {
          "id": "06164V248948",
          "name": "Moa vest",
          "location": {
            "coordinates": {
              "latLon": {
                "lat": 62.465255,
                "lon": 6.345562
              }
            }
          }
        },
        {
          "id": "55265V521064",
          "name": "Lannerheia",
          "location": {
            "coordinates": {
              "latLon": {
                "lat": 59.099639,
                "lon": 9.772268
              }
            }
          }
        },
        {
          "id": "63721V578598",
          "name": "Verdal E6 felt 1 retning Steinkjer",
          "location": {
            "coordinates": {
              "latLon": {
                "lat": 63.785286,
                "lon": 11.464815
              }
            }
          }
        },
        {
          "id": "63327V578083",
          "name": "Verdal arm Levanger-Verdalsøra",
          "location": {
            "coordinates": {
              "latLon": {
                "lat": 63.785531,
                "lon": 11.465702
              }
            }
          }
        },
        {
          "id": "09259V625604",
          "name": "E6 Lodalen rampe Sentrum Lodalen",
          "location": {
            "coordinates": {
              "latLon": {
                "lat": 59.902902,
                "lon": 10.782982
              }
            }
          }
        },
        {
          "id": "96851V180854",
          "name": "Mjøndalen",
          "location": {
            "coordinates": {
              "latLon": {
                "lat": 59.752018,
                "lon": 10.013042
              }
            }
          }
        },
        {
          "id": "04904V971774",
          "name": "Svinesundsbrua",
          "location": {
            "coordinates": {
              "latLon": {
                "lat": 59.097511,
                "lon": 11.250963
              }
            }
          }
        },
        {
          "id": "08666V930617",
          "name": "Vadsø øst",
          "location": {
            "coordinates": {
              "latLon": {
                "lat": 70.074519,
                "lon": 29.774571
              }
            }
          }
        },
        {
          "id": "99593V72151",
          "name": "Korporalsbrua",
          "location": {
            "coordinates": {
              "latLon": {
                "lat": 62.983148,
                "lon": 10.237697
              }
            }
          }
        },
        {
          "id": "19393V72810",
          "name": "STORLERSBAKKEN",
          "location": {
            "coordinates": {
              "latLon": {
                "lat": 63.326316,
                "lon": 10.338896
              }
            }
          }
        },
        {
          "id": "09194V804833",
          "name": "Nygårdstunnelen - Bergen sentrum",
          "location": {
            "coordinates": {
              "latLon": {
                "lat": 60.38296,
                "lon": 5.337229
              }
            }
          }
        },
        {
          "id": "06970V72811",
          "name": "Kroppanbrua",
          "location": {
            "coordinates": {
              "latLon": {
                "lat": 63.391793,
                "lon": 10.384529
              }
            }
          }
        },
        {
          "id": "87557V180903",
          "name": "Elgskauåstunnelen",
          "location": {
            "coordinates": {
              "latLon": {
                "lat": 59.722724,
                "lon": 10.446323
              }
            }
          }
        },
        {
          "id": "40308V72241",
          "name": "Brekktunnelen",
          "location": {
            "coordinates": {
              "latLon": {
                "lat": 63.32031,
                "lon": 10.205196
              }
            }
          }
        },
        {
          "id": "66711V384480",
          "name": "Hafstadflata",
          "location": {
            "coordinates": {
              "latLon": {
                "lat": 61.448756,
                "lon": 5.872084
              }
            }
          }
        },
        {
          "id": "77347V930245",
          "name": "Gjøkenes (Porsanger)",
          "location": {
            "coordinates": {
              "latLon": {
                "lat": 69.990362,
                "lon": 24.952239
              }
            }
          }
        },
        {
          "id": "49453V930259",
          "name": "Barta",
          "location": {
            "coordinates": {
              "latLon": {
                "lat": 69.756091,
                "lon": 26.145048
              }
            }
          }
        },
        {
          "id": "91582V930281",
          "name": "E6 Kirkenes vest",
          "location": {
            "coordinates": {
              "latLon": {
                "lat": 69.725398,
                "lon": 30.067192
              }
            }
          }
        },
        {
          "id": "47623V578084",
          "name": "Verdal arm Steinkjer-Verdalsøra",
          "location": {
            "coordinates": {
              "latLon": {
                "lat": 63.786542,
                "lon": 11.461584
              }
            }
          }
        },
        {
          "id": "65732V578598",
          "name": "Verdal E6 felt 2 retning Levanger",
          "location": {
            "coordinates": {
              "latLon": {
                "lat": 63.786777,
                "lon": 11.462565
              }
            }
          }
        },
        {
          "id": "21606V930225",
          "name": "Langfjordbotn",
          "location": {
            "coordinates": {
              "latLon": {
                "lat": 70.039956,
                "lon": 22.25614
              }
            }
          }
        },
        {
          "id": "74694V249534",
          "name": "Betna nord",
          "location": {
            "coordinates": {
              "latLon": {
                "lat": 63.088663,
                "lon": 8.353548
              }
            }
          }
        },
        {
          "id": "55875V885917",
          "name": "Dalselv",
          "location": {
            "coordinates": {
              "latLon": {
                "lat": 66.261909,
                "lon": 13.974377
              }
            }
          }
        },
        {
          "id": "72525V930309",
          "name": "Laksebybukt",
          "location": {
            "coordinates": {
              "latLon": {
                "lat": 70.088776,
                "lon": 29.655774
              }
            }
          }
        },
        {
          "id": "84237V578097",
          "name": "Teveldalen",
          "location": {
            "coordinates": {
              "latLon": {
                "lat": 63.340732,
                "lon": 12.03835
              }
            }
          }
        },
        {
          "id": "32088V444219",
          "name": "Hvam sør",
          "location": {
            "coordinates": {
              "latLon": {
                "lat": 59.969809,
                "lon": 10.989173
              }
            }
          }
        },
        {
          "id": "01777V885181",
          "name": "Bjørnfjell",
          "location": {
            "coordinates": {
              "latLon": {
                "lat": 68.436037,
                "lon": 18.103487
              }
            }
          }
        },
        {
          "id": "50903V249536",
          "name": "Hestnes",
          "location": {
            "coordinates": {
              "latLon": {
                "lat": 63.133024,
                "lon": 8.523356
              }
            }
          }
        },
        {
          "id": "00598V1060635",
          "name": "Leira",
          "location": {
            "coordinates": {
              "latLon": {
                "lat": 60.973544,
                "lon": 9.280971
              }
            }
          }
        },
        {
          "id": "83942V1828479",
          "name": "Figga",
          "location": {
            "coordinates": {
              "latLon": {
                "lat": 64.004071,
                "lon": 11.4932
              }
            }
          }
        },
        {
          "id": "07242V1751122",
          "name": "Kvernås",
          "location": {
            "coordinates": {
              "latLon": {
                "lat": 58.267069,
                "lon": 8.371424
              }
            }
          }
        },
        {
          "id": "54929V805598",
          "name": "Kvåle",
          "location": {
            "coordinates": {
              "latLon": {
                "lat": 60.617974,
                "lon": 6.372436
              }
            }
          }
        },
        {
          "id": "57449V2237119",
          "name": "Øyertunnelen",
          "location": {
            "coordinates": {
              "latLon": {
                "lat": 61.29084,
                "lon": 10.316843
              }
            }
          }
        },
        {
          "id": "48332V1060626",
          "name": "Rosten",
          "location": {
            "coordinates": {
              "latLon": {
                "lat": 61.878384,
                "lon": 9.415444
              }
            }
          }
        },
        {
          "id": "96154V1060634",
          "name": "Aurdal sør",
          "location": {
            "coordinates": {
              "latLon": {
                "lat": 60.916819,
                "lon": 9.427687
              }
            }
          }
        },
        {
          "id": "60338V625649",
          "name": "EKEBERGTUNNELEN",
          "location": {
            "coordinates": {
              "latLon": {
                "lat": 59.900207,
                "lon": 10.774236
              }
            }
          }
        },
        {
          "id": "43672V804832",
          "name": "Nygård, Nygårdstunnelen - Fløyfjell",
          "location": {
            "coordinates": {
              "latLon": {
                "lat": 60.38294,
                "lon": 5.337244
              }
            }
          }
        },
        {
          "id": "34194V578077",
          "name": "Branes Ø arm Skogn-Levanger",
          "location": {
            "coordinates": {
              "latLon": {
                "lat": 63.731265,
                "lon": 11.292783
              }
            }
          }
        },
        {
          "id": "12554V971778",
          "name": "Jonsten vest",
          "location": {
            "coordinates": {
              "latLon": {
                "lat": 59.367622,
                "lon": 10.813183
              }
            }
          }
        },
        {
          "id": "25000V2252921",
          "name": "Holmene",
          "location": {
            "coordinates": {
              "latLon": {
                "lat": 59.25747,
                "lon": 10.29535
              }
            }
          }
        },
        {
          "id": "15322V384480",
          "name": "Fjellvegen",
          "location": {
            "coordinates": {
              "latLon": {
                "lat": 61.44958,
                "lon": 5.855037
              }
            }
          }
        },
        {
          "id": "19084V704693",
          "name": "Masterud nord",
          "location": {
            "coordinates": {
              "latLon": {
                "lat": 60.179493,
                "lon": 12.321935
              }
            }
          }
        },
        {
          "id": "91460V1665980",
          "name": "Langbakk bru",
          "location": {
            "coordinates": {
              "latLon": {
                "lat": 60.115884,
                "lon": 11.277407
              }
            }
          }
        },
        {
          "id": "12106V72837",
          "name": "GJØLME Ø",
          "location": {
            "coordinates": {
              "latLon": {
                "lat": 63.299721,
                "lon": 9.824633
              }
            }
          }
        },
        {
          "id": "14775V443441",
          "name": "Kneppe",
          "location": {
            "coordinates": {
              "latLon": {
                "lat": 60.208168,
                "lon": 11.067845
              }
            }
          }
        },
        {
          "id": "08615V2398666",
          "name": "Vangstunnelen",
          "location": {
            "coordinates": {
              "latLon": {
                "lat": 60.637207,
                "lon": 6.418092
              }
            }
          }
        },
        {
          "id": "20571V320577",
          "name": "Heskestad v/Eide",
          "location": {
            "coordinates": {
              "latLon": {
                "lat": 58.476122,
                "lon": 6.359629
              }
            }
          }
        },
        {
          "id": "41419V1669366",
          "name": "Kopstad syd",
          "location": {
            "coordinates": {
              "latLon": {
                "lat": 59.415183,
                "lon": 10.364241
              }
            }
          }
        },
        {
          "id": "68960V578600",
          "name": "Mæresmyra",
          "location": {
            "coordinates": {
              "latLon": {
                "lat": 63.94451,
                "lon": 11.419239
              }
            }
          }
        },
        {
          "id": "33784V1667751",
          "name": "Brennemoen øst",
          "location": {
            "coordinates": {
              "latLon": {
                "lat": 59.576649,
                "lon": 11.289398
              }
            }
          }
        },
        {
          "id": "70867V521066",
          "name": "Søndbøvann",
          "location": {
            "coordinates": {
              "latLon": {
                "lat": 58.879837,
                "lon": 9.200306
              }
            }
          }
        },
        {
          "id": "66678V320582",
          "name": "Auglend",
          "location": {
            "coordinates": {
              "latLon": {
                "lat": 58.933473,
                "lon": 5.712759
              }
            }
          }
        },
        {
          "id": "64040V320581",
          "name": "E39 / Somaveien",
          "location": {
            "coordinates": {
              "latLon": {
                "lat": 58.868374,
                "lon": 5.713417
              }
            }
          }
        },
        {
          "id": "39464V1126283",
          "name": "Øse",
          "location": {
            "coordinates": {
              "latLon": {
                "lat": 68.620692,
                "lon": 17.650909
              }
            }
          }
        },
        {
          "id": "92859V805620",
          "name": "Ostereidet",
          "location": {
            "coordinates": {
              "latLon": {
                "lat": 60.626009,
                "lon": 5.472027
              }
            }
          }
        },
        {
          "id": "73311V930605",
          "name": "Roavvegieddi E6 sør",
          "location": {
            "coordinates": {
              "latLon": {
                "lat": 69.916699,
                "lon": 27.038831
              }
            }
          }
        },
        {
          "id": "19702V625216",
          "name": "Svartdalstunellen mot sentrum",
          "location": {
            "coordinates": {
              "latLon": {
                "lat": 59.899352,
                "lon": 10.802524
              }
            }
          }
        },
        {
          "id": "79902V804834",
          "name": "Nygård, Fløyfjell - Nygårdstunnelen",
          "location": {
            "coordinates": {
              "latLon": {
                "lat": 60.382968,
                "lon": 5.336682
              }
            }
          }
        },
        {
          "id": "50000V1715090",
          "name": "Hafstad vest",
          "location": {
            "coordinates": {
              "latLon": {
                "lat": 61.449001,
                "lon": 5.869763
              }
            }
          }
        },
        {
          "id": "83441V578079",
          "name": "Branes Ø arm Levanger-Verdal",
          "location": {
            "coordinates": {
              "latLon": {
                "lat": 63.731286,
                "lon": 11.292863
              }
            }
          }
        },
        {
          "id": "91007V578610",
          "name": "Gartland retning Harran",
          "location": {
            "coordinates": {
              "latLon": {
                "lat": 64.531012,
                "lon": 12.405246
              }
            }
          }
        },
        {
          "id": "89970V578610",
          "name": "Gartland retning Grong",
          "location": {
            "coordinates": {
              "latLon": {
                "lat": 64.530679,
                "lon": 12.403314
              }
            }
          }
        },
        {
          "id": "18523V2282344",
          "name": "Ørbekk nordgående rampe",
          "location": {
            "coordinates": {
              "latLon": {
                "lat": 60.414391,
                "lon": 11.24177
              }
            }
          }
        },
        {
          "id": "53953V704480",
          "name": "MJØSBRUA ØST",
          "location": {
            "coordinates": {
              "latLon": {
                "lat": 60.926851,
                "lon": 10.684215
              }
            }
          }
        },
        {
          "id": "98144V2554057",
          "name": "Elvestad vest",
          "location": {
            "coordinates": {
              "latLon": {
                "lat": 59.640141,
                "lon": 10.938646
              }
            }
          }
        },
        {
          "id": "63904V885194",
          "name": "Vaterfjorden",
          "location": {
            "coordinates": {
              "latLon": {
                "lat": 68.281755,
                "lon": 14.659657
              }
            }
          }
        },
        {
          "id": "13191V930624",
          "name": "Thomasbakken",
          "location": {
            "coordinates": {
              "latLon": {
                "lat": 69.94837,
                "lon": 23.238908
              }
            }
          }
        },
        {
          "id": "50043V885183",
          "name": "Trollvann brøytestasjon",
          "location": {
            "coordinates": {
              "latLon": {
                "lat": 68.476449,
                "lon": 17.742357
              }
            }
          }
        },
        {
          "id": "83641V1126289",
          "name": "Nordkjosbotn øst",
          "location": {
            "coordinates": {
              "latLon": {
                "lat": 69.220148,
                "lon": 19.600767
              }
            }
          }
        },
        {
          "id": "02250V930593",
          "name": "Alta bru",
          "location": {
            "coordinates": {
              "latLon": {
                "lat": 69.967649,
                "lon": 23.376245
              }
            }
          }
        },
        {
          "id": "10990V804785",
          "name": "Klauvaneset (Nordhordlandsbrua)",
          "location": {
            "coordinates": {
              "latLon": {
                "lat": 60.518844,
                "lon": 5.277124
              }
            }
          }
        },
        {
          "id": "89041V625265",
          "name": "E6 Ulvensplitten Rampe Økern Alnabru",
          "location": {
            "coordinates": {
              "latLon": {
                "lat": 59.922799,
                "lon": 10.809022
              }
            }
          }
        },
        {
          "id": "67127V885933",
          "name": "Dragkrysset",
          "location": {
            "coordinates": {
              "latLon": {
                "lat": 68.028541,
                "lon": 16.002542
              }
            }
          }
        },
        {
          "id": "42954V320585",
          "name": "Grinde nord",
          "location": {
            "coordinates": {
              "latLon": {
                "lat": 59.440079,
                "lon": 5.460036
              }
            }
          }
        },
        {
          "id": "96715V521387",
          "name": "Morgedal",
          "location": {
            "coordinates": {
              "latLon": {
                "lat": 59.472199,
                "lon": 8.424334
              }
            }
          }
        },
        {
          "id": "72557V885913",
          "name": "Osen",
          "location": {
            "coordinates": {
              "latLon": {
                "lat": 66.052942,
                "lon": 13.582519
              }
            }
          }
        },
        {
          "id": "33456V625213",
          "name": "E6 Bryn",
          "location": {
            "coordinates": {
              "latLon": {
                "lat": 59.90946,
                "lon": 10.819031
              }
            }
          }
        },
        {
          "id": "98963V1719019",
          "name": "Sandesund sør",
          "location": {
            "coordinates": {
              "latLon": {
                "lat": 59.264037,
                "lon": 11.0965
              }
            }
          }
        },
        {
          "id": "45610V804781",
          "name": "Fjøsanger v/bomst.",
          "location": {
            "coordinates": {
              "latLon": {
                "lat": 60.352808,
                "lon": 5.338256
              }
            }
          }
        },
        {
          "id": "22439V804830",
          "name": "Danmarksplass-sentrum",
          "location": {
            "coordinates": {
              "latLon": {
                "lat": 60.383785,
                "lon": 5.335988
              }
            }
          }
        },
        {
          "id": "17188V930317",
          "name": "Vadsø kai",
          "location": {
            "coordinates": {
              "latLon": {
                "lat": 70.072021,
                "lon": 29.754255
              }
            }
          }
        },
        {
          "id": "79755V625294",
          "name": "MARITIM-510B",
          "location": {
            "coordinates": {
              "latLon": {
                "lat": 59.918562,
                "lon": 10.666507
              }
            }
          }
        },
        {
          "id": "48498V1125765",
          "name": "Heggelia",
          "location": {
            "coordinates": {
              "latLon": {
                "lat": 69.03488,
                "lon": 18.506424
              }
            }
          }
        },
        {
          "id": "89755V180856",
          "name": "Langebru",
          "location": {
            "coordinates": {
              "latLon": {
                "lat": 59.761362,
                "lon": 9.912016
              }
            }
          }
        },
        {
          "id": "73005V249534",
          "name": "Betna vest",
          "location": {
            "coordinates": {
              "latLon": {
                "lat": 63.087727,
                "lon": 8.352673
              }
            }
          }
        },
        {
          "id": "75571V248950",
          "name": "Volsdalen",
          "location": {
            "coordinates": {
              "latLon": {
                "lat": 62.470734,
                "lon": 6.186368
              }
            }
          }
        },
        {
          "id": "74892V1059997",
          "name": "Dombås sør",
          "location": {
            "coordinates": {
              "latLon": {
                "lat": 62.066269,
                "lon": 9.121326
              }
            }
          }
        },
        {
          "id": "10659V121749",
          "name": "Hollekleiv",
          "location": {
            "coordinates": {
              "latLon": {
                "lat": 58.03173,
                "lon": 7.482768
              }
            }
          }
        },
        {
          "id": "67793V930315",
          "name": "Svartnes",
          "location": {
            "coordinates": {
              "latLon": {
                "lat": 70.360911,
                "lon": 31.042592
              }
            }
          }
        },
        {
          "id": "51478V578612",
          "name": "Fjerdingen",
          "location": {
            "coordinates": {
              "latLon": {
                "lat": 64.62363,
                "lon": 12.605673
              }
            }
          }
        },
        {
          "id": "95807V1871351",
          "name": "Branes V E6 felt 2 retning Skogn",
          "location": {
            "coordinates": {
              "latLon": {
                "lat": 63.731361,
                "lon": 11.284304
              }
            }
          }
        },
        {
          "id": "32599V578080",
          "name": "Branes V arm Verdal-Levanger",
          "location": {
            "coordinates": {
              "latLon": {
                "lat": 63.731861,
                "lon": 11.284223
              }
            }
          }
        },
        {
          "id": "35551V521381",
          "name": "Skilrud",
          "location": {
            "coordinates": {
              "latLon": {
                "lat": 59.571492,
                "lon": 9.201402
              }
            }
          }
        },
        {
          "id": "78845V804838",
          "name": "Amalie/Sandviken",
          "location": {
            "coordinates": {
              "latLon": {
                "lat": 60.41396,
                "lon": 5.3217
              }
            }
          }
        },
        {
          "id": "09389V443429",
          "name": "Oslofjordtunnelen",
          "location": {
            "coordinates": {
              "latLon": {
                "lat": 59.691279,
                "lon": 10.655408
              }
            }
          }
        },
        {
          "id": "00000V443437",
          "name": "Bruvoll",
          "location": {
            "coordinates": {
              "latLon": {
                "lat": 60.27486,
                "lon": 10.755878
              }
            }
          }
        },
        {
          "id": "21381V2554057",
          "name": "Jaren",
          "location": {
            "coordinates": {
              "latLon": {
                "lat": 59.622343,
                "lon": 10.996937
              }
            }
          }
        },
        {
          "id": "09537V384484",
          "name": "Våtedalen",
          "location": {
            "coordinates": {
              "latLon": {
                "lat": 61.625475,
                "lon": 6.527866
              }
            }
          }
        },
        {
          "id": "15862V72153",
          "name": "Melhus nord",
          "location": {
            "coordinates": {
              "latLon": {
                "lat": 63.292612,
                "lon": 10.274054
              }
            }
          }
        },
        {
          "id": "58562V1718862",
          "name": "Solberg sør",
          "location": {
            "coordinates": {
              "latLon": {
                "lat": 59.204459,
                "lon": 11.178247
              }
            }
          }
        },
        {
          "id": "27227V885156",
          "name": "Trældaltunnelen",
          "location": {
            "coordinates": {
              "latLon": {
                "lat": 68.475677,
                "lon": 17.589294
              }
            }
          }
        },
        {
          "id": "43916V384471",
          "name": "Borgundstunnelen",
          "location": {
            "coordinates": {
              "latLon": {
                "lat": 61.050963,
                "lon": 7.772713
              }
            }
          }
        },
        {
          "id": "28285V444233",
          "name": "Holmen",
          "location": {
            "coordinates": {
              "latLon": {
                "lat": 59.852087,
                "lon": 10.478874
              }
            }
          }
        },
        {
          "id": "66206V805614",
          "name": "Røykenes",
          "location": {
            "coordinates": {
              "latLon": {
                "lat": 60.254062,
                "lon": 5.437872
              }
            }
          }
        },
        {
          "id": "09333V930400",
          "name": "Høybuktmoen Fv. 887",
          "location": {
            "coordinates": {
              "latLon": {
                "lat": 69.71857,
                "lon": 29.873268
              }
            }
          }
        },
        {
          "id": "67570V625213",
          "name": "E6 Ulvensplitten rampe Teisen Alnabru",
          "location": {
            "coordinates": {
              "latLon": {
                "lat": 59.922708,
                "lon": 10.809038
              }
            }
          }
        },
        {
          "id": "88537V444232",
          "name": "Gyssestad",
          "location": {
            "coordinates": {
              "latLon": {
                "lat": 59.88035,
                "lon": 10.511648
              }
            }
          }
        },
        {
          "id": "64390V1672721",
          "name": "Rødbøltunnelen",
          "location": {
            "coordinates": {
              "latLon": {
                "lat": 59.10745,
                "lon": 10.106287
              }
            }
          }
        },
        {
          "id": "33438V444232",
          "name": "Høvik",
          "location": {
            "coordinates": {
              "latLon": {
                "lat": 59.901659,
                "lon": 10.59024
              }
            }
          }
        },
        {
          "id": "91490V1125788",
          "name": "Gardeborri øvre",
          "location": {
            "coordinates": {
              "latLon": {
                "lat": 69.178807,
                "lon": 20.745143
              }
            }
          }
        },
        {
          "id": "63083V2680826",
          "name": "Martineåsen sørgående",
          "location": {
            "coordinates": {
              "latLon": {
                "lat": 59.064973,
                "lon": 9.989747
              }
            }
          }
        },
        {
          "id": "68511V2673383",
          "name": "Tromsøysundtunnelen T1",
          "location": {
            "coordinates": {
              "latLon": {
                "lat": 69.67012,
                "lon": 19.018382
              }
            }
          }
        },
        {
          "id": "74250V319516",
          "name": "Bråstein",
          "location": {
            "coordinates": {
              "latLon": {
                "lat": 58.808222,
                "lon": 5.776129
              }
            }
          }
        },
        {
          "id": "35088V2252983",
          "name": "Furulund",
          "location": {
            "coordinates": {
              "latLon": {
                "lat": 59.229667,
                "lon": 10.260442
              }
            }
          }
        },
        {
          "id": "33123V2258515",
          "name": "Natvall",
          "location": {
            "coordinates": {
              "latLon": {
                "lat": 59.139191,
                "lon": 10.163282
              }
            }
          }
        },
        {
          "id": "14051V2499835",
          "name": "Strøm",
          "location": {
            "coordinates": {
              "latLon": {
                "lat": 60.245835,
                "lon": 11.762208
              }
            }
          }
        },
        {
          "id": "03398V249527",
          "name": "Glamoxbrua",
          "location": {
            "coordinates": {
              "latLon": {
                "lat": 62.739474,
                "lon": 7.185983
              }
            }
          }
        },
        {
          "id": "58042V1060046",
          "name": "Roa sør",
          "location": {
            "coordinates": {
              "latLon": {
                "lat": 60.281306,
                "lon": 10.643086
              }
            }
          }
        },
        {
          "id": "37345V1742835",
          "name": "Leiråsen",
          "location": {
            "coordinates": {
              "latLon": {
                "lat": 63.689541,
                "lon": 11.144206
              }
            }
          }
        },
        {
          "id": "14770V885184",
          "name": "Bjerkvik vest",
          "location": {
            "coordinates": {
              "latLon": {
                "lat": 68.551109,
                "lon": 17.525349
              }
            }
          }
        },
        {
          "id": "38270V1751420",
          "name": "Inntjore",
          "location": {
            "coordinates": {
              "latLon": {
                "lat": 58.296904,
                "lon": 8.462067
              }
            }
          }
        },
        {
          "id": "30937V444231",
          "name": "Svartskog",
          "location": {
            "coordinates": {
              "latLon": {
                "lat": 59.775641,
                "lon": 10.770275
              }
            }
          }
        },
        {
          "id": "98841V885940",
          "name": "Beisfjordbrua",
          "location": {
            "coordinates": {
              "latLon": {
                "lat": 68.409174,
                "lon": 17.426215
              }
            }
          }
        },
        {
          "id": "38203V2433139",
          "name": "Bagn sør",
          "location": {
            "coordinates": {
              "latLon": {
                "lat": 60.813311,
                "lon": 9.565748
              }
            }
          }
        },
        {
          "id": "30552V444220",
          "name": "Leira bru",
          "location": {
            "coordinates": {
              "latLon": {
                "lat": 60.029546,
                "lon": 11.096486
              }
            }
          }
        },
        {
          "id": "92486V1126283",
          "name": "Langmyra nord",
          "location": {
            "coordinates": {
              "latLon": {
                "lat": 68.653301,
                "lon": 17.699284
              }
            }
          }
        },
        {
          "id": "39245V319652",
          "name": "Rossabø",
          "location": {
            "coordinates": {
              "latLon": {
                "lat": 59.395469,
                "lon": 5.301718
              }
            }
          }
        },
        {
          "id": "30202V2680855",
          "name": "Martineåsen nordgående",
          "location": {
            "coordinates": {
              "latLon": {
                "lat": 59.064846,
                "lon": 9.989601
              }
            }
          }
        },
        {
          "id": "31157V2782679",
          "name": "Tromsøysundtunnelen T2",
          "location": {
            "coordinates": {
              "latLon": {
                "lat": 69.670087,
                "lon": 19.019226
              }
            }
          }
        },
        {
          "id": "72753V1896595",
          "name": "Smålenene bru",
          "location": {
            "coordinates": {
              "latLon": {
                "lat": 59.592218,
                "lon": 11.096421
              }
            }
          }
        },
        {
          "id": "00875V249529",
          "name": "Eidssetra",
          "location": {
            "coordinates": {
              "latLon": {
                "lat": 62.78839,
                "lon": 7.522886
              }
            }
          }
        },
        {
          "id": "02087V625292",
          "name": "Mastemyr",
          "location": {
            "coordinates": {
              "latLon": {
                "lat": 59.828037,
                "lon": 10.777599
              }
            }
          }
        },
        {
          "id": "20318V625294",
          "name": "FESTNINGTUNNEL",
          "location": {
            "coordinates": {
              "latLon": {
                "lat": 59.91118,
                "lon": 10.724291
              }
            }
          }
        },
        {
          "id": "79854V625215",
          "name": "E6 v/Karihaugen",
          "location": {
            "coordinates": {
              "latLon": {
                "lat": 59.940023,
                "lon": 10.933963
              }
            }
          }
        },
        {
          "id": "77470V2664206",
          "name": "Jessheim nord fra Gardermoen",
          "location": {
            "coordinates": {
              "latLon": {
                "lat": 60.160512,
                "lon": 11.154934
              }
            }
          }
        },
        {
          "id": "01316V804837",
          "name": "Munkebotntunnelen",
          "location": {
            "coordinates": {
              "latLon": {
                "lat": 60.414129,
                "lon": 5.321848
              }
            }
          }
        },
        {
          "id": "16720V22149",
          "name": "Ny Vinterkjær vest",
          "location": {
            "coordinates": {
              "latLon": {
                "lat": 58.715409,
                "lon": 9.039277
              }
            }
          }
        },
        {
          "id": "92382V72805",
          "name": "Berkåk",
          "location": {
            "coordinates": {
              "latLon": {
                "lat": 62.807983,
                "lon": 10.032521
              }
            }
          }
        },
        {
          "id": "79453V885912",
          "name": "Skåsmyra",
          "location": {
            "coordinates": {
              "latLon": {
                "lat": 65.875974,
                "lon": 13.229339
              }
            }
          }
        },
        {
          "id": "85320V885198",
          "name": "Nappstraumen tunnel",
          "location": {
            "coordinates": {
              "latLon": {
                "lat": 68.146928,
                "lon": 13.463921
              }
            }
          }
        },
        {
          "id": "34500V930598",
          "name": "Olderfjord sør",
          "location": {
            "coordinates": {
              "latLon": {
                "lat": 70.471705,
                "lon": 25.098749
              }
            }
          }
        },
        {
          "id": "95509V319514",
          "name": "Søylandskiosken",
          "location": {
            "coordinates": {
              "latLon": {
                "lat": 58.682833,
                "lon": 5.987492
              }
            }
          }
        },
        {
          "id": "48837V121751",
          "name": "ØSTRE ROM",
          "location": {
            "coordinates": {
              "latLon": {
                "lat": 58.152636,
                "lon": 7.140236
              }
            }
          }
        },
        {
          "id": "78251V1719132",
          "name": "Bjørnstad",
          "location": {
            "coordinates": {
              "latLon": {
                "lat": 59.308094,
                "lon": 11.038611
              }
            }
          }
        },
        {
          "id": "33313V2014318",
          "name": "Vassbotnbrua",
          "location": {
            "coordinates": {
              "latLon": {
                "lat": 59.072708,
                "lon": 9.925921
              }
            }
          }
        },
        {
          "id": "04939V804763",
          "name": "Osterøy-Trengereid",
          "location": {
            "coordinates": {
              "latLon": {
                "lat": 60.422027,
                "lon": 5.537558
              }
            }
          }
        },
        {
          "id": "22504V72241",
          "name": "Øysand",
          "location": {
            "coordinates": {
              "latLon": {
                "lat": 63.323305,
                "lon": 10.24777
              }
            }
          }
        },
        {
          "id": "23265V885928",
          "name": "Fauske nord",
          "location": {
            "coordinates": {
              "latLon": {
                "lat": 67.277356,
                "lon": 15.405479
              }
            }
          }
        },
        {
          "id": "57053V319651",
          "name": "Toskatjørn",
          "location": {
            "coordinates": {
              "latLon": {
                "lat": 59.410387,
                "lon": 5.346916
              }
            }
          }
        },
        {
          "id": "01482V248909",
          "name": "Sjøholt øst",
          "location": {
            "coordinates": {
              "latLon": {
                "lat": 62.481819,
                "lon": 6.825332
              }
            }
          }
        },
        {
          "id": "39215V320588",
          "name": "Vats",
          "location": {
            "coordinates": {
              "latLon": {
                "lat": 59.569844,
                "lon": 5.702694
              }
            }
          }
        },
        {
          "id": "43286V1060679",
          "name": "BEKKEHALLUM",
          "location": {
            "coordinates": {
              "latLon": {
                "lat": 60.282125,
                "lon": 10.529025
              }
            }
          }
        },
        {
          "id": "61841V578063",
          "name": "Dampsaga",
          "location": {
            "coordinates": {
              "latLon": {
                "lat": 64.018363,
                "lon": 11.490334
              }
            }
          }
        },
        {
          "id": "71989V885955",
          "name": "Svolvær øst",
          "location": {
            "coordinates": {
              "latLon": {
                "lat": 68.24229,
                "lon": 14.587071
              }
            }
          }
        },
        {
          "id": "25779V2413305",
          "name": "Alta vest",
          "location": {
            "coordinates": {
              "latLon": {
                "lat": 69.939634,
                "lon": 23.131866
              }
            }
          }
        },
        {
          "id": "59199V72809",
          "name": "MELHUS SØR",
          "location": {
            "coordinates": {
              "latLon": {
                "lat": 63.256138,
                "lon": 10.282825
              }
            }
          }
        },
        {
          "id": "14444V2005568",
          "name": "Bårdshaug",
          "location": {
            "coordinates": {
              "latLon": {
                "lat": 63.296526,
                "lon": 9.853389
              }
            }
          }
        },
        {
          "id": "17567V180905",
          "name": "Gullaug",
          "location": {
            "coordinates": {
              "latLon": {
                "lat": 59.75134,
                "lon": 10.287577
              }
            }
          }
        },
        {
          "id": "39256V181280",
          "name": "Spikkestad",
          "location": {
            "coordinates": {
              "latLon": {
                "lat": 59.733925,
                "lon": 10.349427
              }
            }
          }
        },
        {
          "id": "55912B613537",
          "name": "Lysaker sykkel",
          "location": {
            "coordinates": {
              "latLon": {
                "lat": 59.913211,
                "lon": 10.641612
              }
            }
          }
        },
        {
          "id": "14843V1125937",
          "name": "Giæverbukta nord",
          "location": {
            "coordinates": {
              "latLon": {
                "lat": 69.672391,
                "lon": 18.917582
              }
            }
          }
        },
        {
          "id": "01521V249521",
          "name": "Ørsta sentrum",
          "location": {
            "coordinates": {
              "latLon": {
                "lat": 62.199507,
                "lon": 6.126382
              }
            }
          }
        },
        {
          "id": "43803V249522",
          "name": "Flåvik",
          "location": {
            "coordinates": {
              "latLon": {
                "lat": 62.270102,
                "lon": 5.992089
              }
            }
          }
        },
        {
          "id": "56355V2788140",
          "name": "Nyelv",
          "location": {
            "coordinates": {
              "latLon": {
                "lat": 70.075447,
                "lon": 28.836578
              }
            }
          }
        },
        {
          "id": "25641V1699273",
          "name": "Romarheimsdalen",
          "location": {
            "coordinates": {
              "latLon": {
                "lat": 60.791481,
                "lon": 5.624044
              }
            }
          }
        },
        {
          "id": "41451V320581",
          "name": "Folkvord",
          "location": {
            "coordinates": {
              "latLon": {
                "lat": 58.850214,
                "lon": 5.714475
              }
            }
          }
        },
        {
          "id": "58648V248949",
          "name": "Hatlaåstunnelen",
          "location": {
            "coordinates": {
              "latLon": {
                "lat": 62.466206,
                "lon": 6.295881
              }
            }
          }
        },
        {
          "id": "20435V804835",
          "name": "Nygård, Sentrum-Danmarksplass",
          "location": {
            "coordinates": {
              "latLon": {
                "lat": 60.38433,
                "lon": 5.336003
              }
            }
          }
        },
        {
          "id": "19545V521390",
          "name": "Grønliheia",
          "location": {
            "coordinates": {
              "latLon": {
                "lat": 59.531555,
                "lon": 8.107742
              }
            }
          }
        },
        {
          "id": "52688V625649",
          "name": "E6 Lodalen Helsfyr mot Sentrum",
          "location": {
            "coordinates": {
              "latLon": {
                "lat": 59.902979,
                "lon": 10.782776
              }
            }
          }
        },
        {
          "id": "53409V1204042",
          "name": "Rampe mot Vige",
          "location": {
            "coordinates": {
              "latLon": {
                "lat": 58.164436,
                "lon": 8.043944
              }
            }
          }
        },
        {
          "id": "49611V249530",
          "name": "Silset",
          "location": {
            "coordinates": {
              "latLon": {
                "lat": 62.882977,
                "lon": 7.665264
              }
            }
          }
        },
        {
          "id": "48559V2741763",
          "name": "Filefjelltunnelen",
          "location": {
            "coordinates": {
              "latLon": {
                "lat": 61.193675,
                "lon": 8.186133
              }
            }
          }
        },
        {
          "id": "31588V886040",
          "name": "Evenes lufthavn",
          "location": {
            "coordinates": {
              "latLon": {
                "lat": 68.49198,
                "lon": 16.696942
              }
            }
          }
        },
        {
          "id": "25219V1773688",
          "name": "Skuitunnelen",
          "location": {
            "coordinates": {
              "latLon": {
                "lat": 59.927825,
                "lon": 10.454051
              }
            }
          }
        },
        {
          "id": "97843V1060647",
          "name": "Bjorli vest",
          "location": {
            "coordinates": {
              "latLon": {
                "lat": 62.270582,
                "lon": 8.163585
              }
            }
          }
        },
        {
          "id": "68804V121330",
          "name": "Rampe fra Lund",
          "location": {
            "coordinates": {
              "latLon": {
                "lat": 58.161521,
                "lon": 8.019282
              }
            }
          }
        },
        {
          "id": "31619V320585",
          "name": "Grinde nord",
          "location": {
            "coordinates": {
              "latLon": {
                "lat": 59.433506,
                "lon": 5.460525
              }
            }
          }
        },
        {
          "id": "24742V1669523",
          "name": "Tveiten",
          "location": {
            "coordinates": {
              "latLon": {
                "lat": 59.331929,
                "lon": 10.378529
              }
            }
          }
        },
        {
          "id": "24290V885934",
          "name": "Ulvsvåg sør",
          "location": {
            "coordinates": {
              "latLon": {
                "lat": 68.113305,
                "lon": 15.867001
              }
            }
          }
        },
        {
          "id": "17322V1201949",
          "name": "Storbukt",
          "location": {
            "coordinates": {
              "latLon": {
                "lat": 70.998349,
                "lon": 25.968311
              }
            }
          }
        },
        {
          "id": "68557V444232",
          "name": "Blommenholm",
          "location": {
            "coordinates": {
              "latLon": {
                "lat": 59.891774,
                "lon": 10.535191
              }
            }
          }
        },
        {
          "id": "09390V384481",
          "name": "Bruland",
          "location": {
            "coordinates": {
              "latLon": {
                "lat": 61.443212,
                "lon": 5.897774
              }
            }
          }
        },
        {
          "id": "55974V2558758",
          "name": "Kråkmotunnelen",
          "location": {
            "coordinates": {
              "latLon": {
                "lat": 67.800783,
                "lon": 15.983665
              }
            }
          }
        },
        {
          "id": "38872V704479",
          "name": "RUDSHØGDA N",
          "location": {
            "coordinates": {
              "latLon": {
                "lat": 60.915201,
                "lon": 10.795034
              }
            }
          }
        },
        {
          "id": "00378V444233",
          "name": "Slependen (Ikea)",
          "location": {
            "coordinates": {
              "latLon": {
                "lat": 59.873068,
                "lon": 10.498405
              }
            }
          }
        },
        {
          "id": "33419V930316",
          "name": "Vardø sentrum",
          "location": {
            "coordinates": {
              "latLon": {
                "lat": 70.371482,
                "lon": 31.103498
              }
            }
          }
        },
        {
          "id": "66883V930281",
          "name": "Solheimslia",
          "location": {
            "coordinates": {
              "latLon": {
                "lat": 69.724792,
                "lon": 30.041215
              }
            }
          }
        },
        {
          "id": "56466V804740",
          "name": "Trengereidtunnelen",
          "location": {
            "coordinates": {
              "latLon": {
                "lat": 60.429395,
                "lon": 5.637662
              }
            }
          }
        },
        {
          "id": "23071V1125776",
          "name": "Nordnes v/værstasjon",
          "location": {
            "coordinates": {
              "latLon": {
                "lat": 69.584701,
                "lon": 20.398726
              }
            }
          }
        },
        {
          "id": "07156V248908",
          "name": "Ytterholen",
          "location": {
            "coordinates": {
              "latLon": {
                "lat": 62.470778,
                "lon": 6.364525
              }
            }
          }
        },
        {
          "id": "54653V1751052",
          "name": "Løehei",
          "location": {
            "coordinates": {
              "latLon": {
                "lat": 58.201763,
                "lon": 8.205971
              }
            }
          }
        },
        {
          "id": "29015V885202",
          "name": "Moskenes  nord",
          "location": {
            "coordinates": {
              "latLon": {
                "lat": 67.902522,
                "lon": 13.041943
              }
            }
          }
        },
        {
          "id": "57808V2282277",
          "name": "Kleverud",
          "location": {
            "coordinates": {
              "latLon": {
                "lat": 60.554705,
                "lon": 11.250692
              }
            }
          }
        },
        {
          "id": "18257V319514",
          "name": "Vikesåbakkene",
          "location": {
            "coordinates": {
              "latLon": {
                "lat": 58.642881,
                "lon": 6.063425
              }
            }
          }
        },
        {
          "id": "08771V521381",
          "name": "Spiten",
          "location": {
            "coordinates": {
              "latLon": {
                "lat": 59.561179,
                "lon": 9.242238
              }
            }
          }
        },
        {
          "id": "88119V319814",
          "name": "Norheim (Karmsund)",
          "location": {
            "coordinates": {
              "latLon": {
                "lat": 59.376635,
                "lon": 5.302741
              }
            }
          }
        },
        {
          "id": "65035V248952",
          "name": "Skutvika",
          "location": {
            "coordinates": {
              "latLon": {
                "lat": 62.470135,
                "lon": 6.141038
              }
            }
          }
        },
        {
          "id": "40729V578598",
          "name": "Vinne",
          "location": {
            "coordinates": {
              "latLon": {
                "lat": 63.767913,
                "lon": 11.458735
              }
            }
          }
        },
        {
          "id": "34684V384477",
          "name": "Årbergsdalen",
          "location": {
            "coordinates": {
              "latLon": {
                "lat": 61.292058,
                "lon": 5.826874
              }
            }
          }
        },
        {
          "id": "91169V1801368",
          "name": "Kolobekken sør",
          "location": {
            "coordinates": {
              "latLon": {
                "lat": 60.64907,
                "lon": 11.292932
              }
            }
          }
        },
        {
          "id": "45876V1060635",
          "name": "Fagernes vest",
          "location": {
            "coordinates": {
              "latLon": {
                "lat": 60.978719,
                "lon": 9.222867
              }
            }
          }
        },
        {
          "id": "63493V248904",
          "name": "Hovden",
          "location": {
            "coordinates": {
              "latLon": {
                "lat": 62.182,
                "lon": 6.078934
              }
            }
          }
        },
        {
          "id": "27620V885957",
          "name": "Rørvikskaret",
          "location": {
            "coordinates": {
              "latLon": {
                "lat": 68.212701,
                "lon": 14.305228
              }
            }
          }
        },
        {
          "id": "19474V885911",
          "name": "Alsgård",
          "location": {
            "coordinates": {
              "latLon": {
                "lat": 65.765271,
                "lon": 13.291183
              }
            }
          }
        },
        {
          "id": "68234V443152",
          "name": "Taraldrud",
          "location": {
            "coordinates": {
              "latLon": {
                "lat": 59.798917,
                "lon": 10.843085
              }
            }
          }
        },
        {
          "id": "37602V72246",
          "name": "Vinjeøra",
          "location": {
            "coordinates": {
              "latLon": {
                "lat": 63.196659,
                "lon": 8.929516
              }
            }
          }
        },
        {
          "id": "98389V1201959",
          "name": "Leknes øst",
          "location": {
            "coordinates": {
              "latLon": {
                "lat": 68.150761,
                "lon": 13.620753
              }
            }
          }
        },
        {
          "id": "41221V704557",
          "name": "Ullern",
          "location": {
            "coordinates": {
              "latLon": {
                "lat": 60.216348,
                "lon": 11.634549
              }
            }
          }
        },
        {
          "id": "80769V2460281",
          "name": "Dr. Eufemias Gt. Østgående Datter",
          "location": {
            "coordinates": {
              "latLon": {
                "lat": 59.908574,
                "lon": 10.754458
              }
            }
          }
        },
        {
          "id": "87902V521385",
          "name": "Flatin",
          "location": {
            "coordinates": {
              "latLon": {
                "lat": 59.505935,
                "lon": 8.644359
              }
            }
          }
        },
        {
          "id": "09588V1751352",
          "name": "Tingsaker",
          "location": {
            "coordinates": {
              "latLon": {
                "lat": 58.262551,
                "lon": 8.393814
              }
            }
          }
        },
        {
          "id": "77209V1060620",
          "name": "Frya",
          "location": {
            "coordinates": {
              "latLon": {
                "lat": 61.547985,
                "lon": 10.03937
              }
            }
          }
        },
        {
          "id": "97687V72808",
          "name": "Horg",
          "location": {
            "coordinates": {
              "latLon": {
                "lat": 63.138462,
                "lon": 10.254719
              }
            }
          }
        },
        {
          "id": "20810V384475",
          "name": "Kringla",
          "location": {
            "coordinates": {
              "latLon": {
                "lat": 60.940987,
                "lon": 5.498886
              }
            }
          }
        },
        {
          "id": "08002V181261",
          "name": "Avkj. Darbu vest",
          "location": {
            "coordinates": {
              "latLon": {
                "lat": 59.700548,
                "lon": 9.772301
              }
            }
          }
        },
        {
          "id": "24362V72144",
          "name": "Grønbakken",
          "location": {
            "coordinates": {
              "latLon": {
                "lat": 62.276322,
                "lon": 9.585444
              }
            }
          }
        },
        {
          "id": "40366V521376",
          "name": "Brattåstunnelen",
          "location": {
            "coordinates": {
              "latLon": {
                "lat": 59.096173,
                "lon": 9.666975
              }
            }
          }
        },
        {
          "id": "45313V1125788",
          "name": "Galgo v/værstasjon",
          "location": {
            "coordinates": {
              "latLon": {
                "lat": 69.14669,
                "lon": 20.746536
              }
            }
          }
        },
        {
          "id": "01749V885956",
          "name": "Svolvær vest (Nonshaugtunnelen)",
          "location": {
            "coordinates": {
              "latLon": {
                "lat": 68.23626,
                "lon": 14.557718
              }
            }
          }
        },
        {
          "id": "14111V22152",
          "name": "Rannekleiv",
          "location": {
            "coordinates": {
              "latLon": {
                "lat": 58.429488,
                "lon": 8.695231
              }
            }
          }
        },
        {
          "id": "98318V930235",
          "name": "Elvebakken",
          "location": {
            "coordinates": {
              "latLon": {
                "lat": 69.970047,
                "lon": 23.373149
              }
            }
          }
        },
        {
          "id": "30904V72218",
          "name": "Moholt rampe fra Moholt",
          "location": {
            "coordinates": {
              "latLon": {
                "lat": 63.408653,
                "lon": 10.43991
              }
            }
          }
        },
        {
          "id": "21405V2607269",
          "name": "Ørje",
          "location": {
            "coordinates": {
              "latLon": {
                "lat": 59.484949,
                "lon": 11.745634
              }
            }
          }
        },
        {
          "id": "19257V930281",
          "name": "Kirkenes sør",
          "location": {
            "coordinates": {
              "latLon": {
                "lat": 69.697046,
                "lon": 30.013885
              }
            }
          }
        },
        {
          "id": "70603V2781358",
          "name": "Hov sør",
          "location": {
            "coordinates": {
              "latLon": {
                "lat": 60.191317,
                "lon": 12.02832
              }
            }
          }
        },
        {
          "id": "62685V885925",
          "name": "Røkland nord",
          "location": {
            "coordinates": {
              "latLon": {
                "lat": 66.992926,
                "lon": 15.334301
              }
            }
          }
        },
        {
          "id": "69193V248908",
          "name": "Brusdalen",
          "location": {
            "coordinates": {
              "latLon": {
                "lat": 62.483671,
                "lon": 6.471878
              }
            }
          }
        },
        {
          "id": "74164V319648",
          "name": "Våg øst",
          "location": {
            "coordinates": {
              "latLon": {
                "lat": 59.45742,
                "lon": 5.493206
              }
            }
          }
        },
        {
          "id": "88287V805625",
          "name": "Nygård, Sentrum-Nygårdstunnelen",
          "location": {
            "coordinates": {
              "latLon": {
                "lat": 60.383572,
                "lon": 5.33447
              }
            }
          }
        },
        {
          "id": "58420V805630",
          "name": "Seljestad",
          "location": {
            "coordinates": {
              "latLon": {
                "lat": 59.905144,
                "lon": 6.618945
              }
            }
          }
        },
        {
          "id": "23412V804831",
          "name": "Nygård, Nygårdstunnelen-Danmarksplass",
          "location": {
            "coordinates": {
              "latLon": {
                "lat": 60.383215,
                "lon": 5.334657
              }
            }
          }
        },
        {
          "id": "60256V930371",
          "name": "Alta lufthavn",
          "location": {
            "coordinates": {
              "latLon": {
                "lat": 69.97578,
                "lon": 23.349536
              }
            }
          }
        },
        {
          "id": "85147V1201967",
          "name": "Hungeren",
          "location": {
            "coordinates": {
              "latLon": {
                "lat": 69.635616,
                "lon": 18.961609
              }
            }
          }
        },
        {
          "id": "72861V2491863",
          "name": "Skibotn",
          "location": {
            "coordinates": {
              "latLon": {
                "lat": 69.373797,
                "lon": 20.287759
              }
            }
          }
        },
        {
          "id": "72438V180781",
          "name": "Rørvik vest (Rasteplass)",
          "location": {
            "coordinates": {
              "latLon": {
                "lat": 60.021746,
                "lon": 10.267832
              }
            }
          }
        },
        {
          "id": "01355V1702751",
          "name": "Hånes",
          "location": {
            "coordinates": {
              "latLon": {
                "lat": 58.165139,
                "lon": 8.087548
              }
            }
          }
        },
        {
          "id": "21008V885200",
          "name": "Ramberg",
          "location": {
            "coordinates": {
              "latLon": {
                "lat": 68.08558,
                "lon": 13.230334
              }
            }
          }
        },
        {
          "id": "92394V885954",
          "name": "Higrav/Leirvikhaugen",
          "location": {
            "coordinates": {
              "latLon": {
                "lat": 68.372232,
                "lon": 14.778522
              }
            }
          }
        },
        {
          "id": "60041V443428",
          "name": "Frogntunnelen",
          "location": {
            "coordinates": {
              "latLon": {
                "lat": 59.708242,
                "lon": 10.686021
              }
            }
          }
        },
        {
          "id": "99999V2568304",
          "name": "Remmem",
          "location": {
            "coordinates": {
              "latLon": {
                "lat": 62.610152,
                "lon": 7.095103
              }
            }
          }
        },
        {
          "id": "19425V885198",
          "name": "Storeidet",
          "location": {
            "coordinates": {
              "latLon": {
                "lat": 68.134707,
                "lon": 13.567862
              }
            }
          }
        },
        {
          "id": "00870V1204449",
          "name": "Vatland",
          "location": {
            "coordinates": {
              "latLon": {
                "lat": 58.220992,
                "lon": 6.923103
              }
            }
          }
        },
        {
          "id": "46694V521392",
          "name": "Vinje",
          "location": {
            "coordinates": {
              "latLon": {
                "lat": 59.61823,
                "lon": 7.853956
              }
            }
          }
        },
        {
          "id": "29852V885202",
          "name": "Moskenes sør",
          "location": {
            "coordinates": {
              "latLon": {
                "lat": 67.902146,
                "lon": 13.04104
              }
            }
          }
        },
        {
          "id": "41542V705184",
          "name": "VERVEN",
          "location": {
            "coordinates": {
              "latLon": {
                "lat": 60.86875,
                "lon": 10.948797
              }
            }
          }
        },
        {
          "id": "45277V971781",
          "name": "Melleby",
          "location": {
            "coordinates": {
              "latLon": {
                "lat": 59.545832,
                "lon": 11.454314
              }
            }
          }
        },
        {
          "id": "00000V1702751",
          "name": "Timenes",
          "location": {
            "coordinates": {
              "latLon": {
                "lat": 58.166064,
                "lon": 8.096541
              }
            }
          }
        },
        {
          "id": "60539V248942",
          "name": "Måndalen øst",
          "location": {
            "coordinates": {
              "latLon": {
                "lat": 62.531923,
                "lon": 7.454533
              }
            }
          }
        },
        {
          "id": "62393V72804",
          "name": "Oppdal øst",
          "location": {
            "coordinates": {
              "latLon": {
                "lat": 62.596302,
                "lon": 9.702727
              }
            }
          }
        },
        {
          "id": "99160V930279",
          "name": "Høybuktmoen E6",
          "location": {
            "coordinates": {
              "latLon": {
                "lat": 69.718542,
                "lon": 29.871523
              }
            }
          }
        },
        {
          "id": "41111V72156",
          "name": "Stavsjøtunnelen",
          "location": {
            "coordinates": {
              "latLon": {
                "lat": 63.411042,
                "lon": 10.773002
              }
            }
          }
        },
        {
          "id": "99846V2429627",
          "name": "Lavangsdalen",
          "location": {
            "coordinates": {
              "latLon": {
                "lat": 69.433763,
                "lon": 19.260638
              }
            }
          }
        },
        {
          "id": "01513V1665565",
          "name": "E10 Gullesfjord sør",
          "location": {
            "coordinates": {
              "latLon": {
                "lat": 68.52895,
                "lon": 15.766067
              }
            }
          }
        },
        {
          "id": "53019V1201959",
          "name": "Oppdøl (Vestvågøy)",
          "location": {
            "coordinates": {
              "latLon": {
                "lat": 68.185213,
                "lon": 13.64219
              }
            }
          }
        },
        {
          "id": "63025V885155",
          "name": "Hergotta",
          "location": {
            "coordinates": {
              "latLon": {
                "lat": 68.452629,
                "lon": 17.70665
              }
            }
          }
        },
        {
          "id": "15322V971307",
          "name": "Storebaug",
          "location": {
            "coordinates": {
              "latLon": {
                "lat": 59.419404,
                "lon": 10.704638
              }
            }
          }
        },
        {
          "id": "95703V2037788",
          "name": "Eidsvolltunnelen",
          "location": {
            "coordinates": {
              "latLon": {
                "lat": 60.337145,
                "lon": 11.196726
              }
            }
          }
        },
        {
          "id": "31475V885919",
          "name": "Åenget",
          "location": {
            "coordinates": {
              "latLon": {
                "lat": 66.325165,
                "lon": 14.228765
              }
            }
          }
        },
        {
          "id": "70320V521380",
          "name": "Våladalen",
          "location": {
            "coordinates": {
              "latLon": {
                "lat": 59.563035,
                "lon": 9.267516
              }
            }
          }
        },
        {
          "id": "38224V384485",
          "name": "Byrkjelo sør",
          "location": {
            "coordinates": {
              "latLon": {
                "lat": 61.730313,
                "lon": 6.509048
              }
            }
          }
        },
        {
          "id": "61864V885947",
          "name": "Kåringen nord",
          "location": {
            "coordinates": {
              "latLon": {
                "lat": 68.441796,
                "lon": 16.00709
              }
            }
          }
        },
        {
          "id": "53805V444232",
          "name": "Solvik Ramstad",
          "location": {
            "coordinates": {
              "latLon": {
                "lat": 59.895744,
                "lon": 10.558391
              }
            }
          }
        },
        {
          "id": "84996V1060616",
          "name": "ØYER GR. SØR (E6)",
          "location": {
            "coordinates": {
              "latLon": {
                "lat": 61.187451,
                "lon": 10.416608
              }
            }
          }
        },
        {
          "id": "77061V444230",
          "name": "EV 18 v/rasteplass Ski",
          "location": {
            "coordinates": {
              "latLon": {
                "lat": 59.731456,
                "lon": 10.78419
              }
            }
          }
        },
        {
          "id": "61137V2423227",
          "name": "Skulestadmo",
          "location": {
            "coordinates": {
              "latLon": {
                "lat": 60.660074,
                "lon": 6.436062
              }
            }
          }
        },
        {
          "id": "12357V625212",
          "name": "Klemetsrud",
          "location": {
            "coordinates": {
              "latLon": {
                "lat": 59.82707,
                "lon": 10.843871
              }
            }
          }
        },
        {
          "id": "32268V1060625",
          "name": "Otta sør",
          "location": {
            "coordinates": {
              "latLon": {
                "lat": 61.739556,
                "lon": 9.559399
              }
            }
          }
        },
        {
          "id": "88780V2282345",
          "name": "Ørbekk sørgående rampe",
          "location": {
            "coordinates": {
              "latLon": {
                "lat": 60.414411,
                "lon": 11.240639
              }
            }
          }
        },
        {
          "id": "02175V930310",
          "name": "Vadsø vest",
          "location": {
            "coordinates": {
              "latLon": {
                "lat": 70.078264,
                "lon": 29.720658
              }
            }
          }
        },
        {
          "id": "13093V804836",
          "name": "Amalie/Fløyfjellet",
          "location": {
            "coordinates": {
              "latLon": {
                "lat": 60.414043,
                "lon": 5.321726
              }
            }
          }
        },
        {
          "id": "30128V121328",
          "name": "Rampe fra Østre ringvei",
          "location": {
            "coordinates": {
              "latLon": {
                "lat": 58.160961,
                "lon": 8.019373
              }
            }
          }
        },
        {
          "id": "19632V1665341",
          "name": "Kåringen vest",
          "location": {
            "coordinates": {
              "latLon": {
                "lat": 68.441636,
                "lon": 16.007202
              }
            }
          }
        },
        {
          "id": "12750V930437",
          "name": "Banak",
          "location": {
            "coordinates": {
              "latLon": {
                "lat": 70.053309,
                "lon": 24.980611
              }
            }
          }
        },
        {
          "id": "94975V2411852",
          "name": "Rostad",
          "location": {
            "coordinates": {
              "latLon": {
                "lat": 63.089078,
                "lon": 10.250236
              }
            }
          }
        },
        {
          "id": "65758V1796925",
          "name": "Nøstvettunnelen",
          "location": {
            "coordinates": {
              "latLon": {
                "lat": 59.758719,
                "lon": 10.808882
              }
            }
          }
        },
        {
          "id": "86172V1125769",
          "name": "Heia",
          "location": {
            "coordinates": {
              "latLon": {
                "lat": 69.144833,
                "lon": 19.050572
              }
            }
          }
        },
        {
          "id": "91810V2497857",
          "name": "Vågstrandstunnelen",
          "location": {
            "coordinates": {
              "latLon": {
                "lat": 62.564511,
                "lon": 7.406031
              }
            }
          }
        },
        {
          "id": "92079V1206412",
          "name": "Langnes",
          "location": {
            "coordinates": {
              "latLon": {
                "lat": 66.304343,
                "lon": 14.122609
              }
            }
          }
        },
        {
          "id": "49950V319650",
          "name": "Førresfjordvegen",
          "location": {
            "coordinates": {
              "latLon": {
                "lat": 59.423191,
                "lon": 5.424572
              }
            }
          }
        },
        {
          "id": "44161V2411262",
          "name": "Hundtorptunnelen",
          "location": {
            "coordinates": {
              "latLon": {
                "lat": 61.553437,
                "lon": 9.97158
              }
            }
          }
        },
        {
          "id": "19085V885118",
          "name": "Fellingfors",
          "location": {
            "coordinates": {
              "latLon": {
                "lat": 65.537592,
                "lon": 13.405977
              }
            }
          }
        },
        {
          "id": "14178V705183",
          "name": "ÅKERSVIKA N",
          "location": {
            "coordinates": {
              "latLon": {
                "lat": 60.804866,
                "lon": 11.111406
              }
            }
          }
        },
        {
          "id": "73894V444221",
          "name": "Jessheim E6",
          "location": {
            "coordinates": {
              "latLon": {
                "lat": 60.141624,
                "lon": 11.154225
              }
            }
          }
        },
        {
          "id": "42912V249526",
          "name": "Tysse",
          "location": {
            "coordinates": {
              "latLon": {
                "lat": 62.477905,
                "lon": 6.715169
              }
            }
          }
        },
        {
          "id": "59215V444233",
          "name": "Fusdalkrysset (Asker)",
          "location": {
            "coordinates": {
              "latLon": {
                "lat": 59.834138,
                "lon": 10.442252
              }
            }
          }
        },
        {
          "id": "14675V1676379",
          "name": "Hjelmungen",
          "location": {
            "coordinates": {
              "latLon": {
                "lat": 59.135295,
                "lon": 11.262906
              }
            }
          }
        },
        {
          "id": "78017V804784",
          "name": "Vågsbotn",
          "location": {
            "coordinates": {
              "latLon": {
                "lat": 60.47701,
                "lon": 5.347521
              }
            }
          }
        },
        {
          "id": "23392V625266",
          "name": "E6 Ulvensplitten Rampe Alnabru Økern",
          "location": {
            "coordinates": {
              "latLon": {
                "lat": 59.923027,
                "lon": 10.809383
              }
            }
          }
        },
        {
          "id": "87699V804741",
          "name": "Blindheim",
          "location": {
            "coordinates": {
              "latLon": {
                "lat": 60.469487,
                "lon": 5.370048
              }
            }
          }
        },
        {
          "id": "49530V804761",
          "name": "Trengereid-Osterøy",
          "location": {
            "coordinates": {
              "latLon": {
                "lat": 60.422224,
                "lon": 5.5403
              }
            }
          }
        },
        {
          "id": "90978V1126285",
          "name": "Setermoen sør",
          "location": {
            "coordinates": {
              "latLon": {
                "lat": 68.859196,
                "lon": 18.331788
              }
            }
          }
        },
        {
          "id": "88422V384010",
          "name": "Lærdalstunnelen",
          "location": {
            "coordinates": {
              "latLon": {
                "lat": 60.987375,
                "lon": 7.41129
              }
            }
          }
        },
        {
          "id": "57544V930596",
          "name": "Skaidi",
          "location": {
            "coordinates": {
              "latLon": {
                "lat": 70.432433,
                "lon": 24.503051
              }
            }
          }
        },
        {
          "id": "93717V320578",
          "name": "Saglandsbakken",
          "location": {
            "coordinates": {
              "latLon": {
                "lat": 58.560537,
                "lon": 6.075854
              }
            }
          }
        },
        {
          "id": "95678V1125814",
          "name": "Tjeldsund bru vest",
          "location": {
            "coordinates": {
              "latLon": {
                "lat": 68.630489,
                "lon": 16.565817
              }
            }
          }
        },
        {
          "id": "81777V2314690",
          "name": "Høgsettunnelen",
          "location": {
            "coordinates": {
              "latLon": {
                "lat": 62.9619,
                "lon": 7.768349
              }
            }
          }
        },
        {
          "id": "99744V249541",
          "name": "Innfjordtunnelen",
          "location": {
            "coordinates": {
              "latLon": {
                "lat": 62.54831,
                "lon": 7.659566
              }
            }
          }
        },
        {
          "id": "13447V625213",
          "name": "E6 Manglerud",
          "location": {
            "coordinates": {
              "latLon": {
                "lat": 59.901192,
                "lon": 10.818018
              }
            }
          }
        },
        {
          "id": "43112V320576",
          "name": "Hamrebakkene",
          "location": {
            "coordinates": {
              "latLon": {
                "lat": 58.445484,
                "lon": 6.580261
              }
            }
          }
        },
        {
          "id": "39653V2172095",
          "name": "Helland syd",
          "location": {
            "coordinates": {
              "latLon": {
                "lat": 59.43722,
                "lon": 10.362078
              }
            }
          }
        },
        {
          "id": "36944V2664207",
          "name": "Jessheim nord mot Gardermoen",
          "location": {
            "coordinates": {
              "latLon": {
                "lat": 60.160397,
                "lon": 11.153762
              }
            }
          }
        },
        {
          "id": "14213V521376",
          "name": "E18 Nystrand",
          "location": {
            "coordinates": {
              "latLon": {
                "lat": 59.110585,
                "lon": 9.698227
              }
            }
          }
        },
        {
          "id": "22231V320583",
          "name": "Finnestad",
          "location": {
            "coordinates": {
              "latLon": {
                "lat": 58.990854,
                "lon": 5.654546
              }
            }
          }
        },
        {
          "id": "05960V384024",
          "name": "Reed vest",
          "location": {
            "coordinates": {
              "latLon": {
                "lat": 61.739457,
                "lon": 6.390408
              }
            }
          }
        },
        {
          "id": "88980V805612",
          "name": "Mehammar",
          "location": {
            "coordinates": {
              "latLon": {
                "lat": 59.912668,
                "lon": 5.488023
              }
            }
          }
        },
        {
          "id": "31504V578608",
          "name": "Tjennaråsen",
          "location": {
            "coordinates": {
              "latLon": {
                "lat": 64.333263,
                "lon": 12.34064
              }
            }
          }
        },
        {
          "id": "04403V2172075",
          "name": "Skoger",
          "location": {
            "coordinates": {
              "latLon": {
                "lat": 59.66634,
                "lon": 10.237434
              }
            }
          }
        },
        {
          "id": "84325V384020",
          "name": "Bogstunnelen",
          "location": {
            "coordinates": {
              "latLon": {
                "lat": 61.176338,
                "lon": 5.77479
              }
            }
          }
        },
        {
          "id": "03486V319647",
          "name": "Ølen/Etne",
          "location": {
            "coordinates": {
              "latLon": {
                "lat": 59.623112,
                "lon": 5.886106
              }
            }
          }
        },
        {
          "id": "58345V1719147",
          "name": "Eidettunnelen nord",
          "location": {
            "coordinates": {
              "latLon": {
                "lat": 59.316036,
                "lon": 11.000124
              }
            }
          }
        },
        {
          "id": "84212V805616",
          "name": "Eidsvågtunnelen",
          "location": {
            "coordinates": {
              "latLon": {
                "lat": 60.426893,
                "lon": 5.304273
              }
            }
          }
        },
        {
          "id": "86357V444219",
          "name": "Skedsmovollen",
          "location": {
            "coordinates": {
              "latLon": {
                "lat": 60.003356,
                "lon": 11.046334
              }
            }
          }
        },
        {
          "id": "73380V121327",
          "name": "Rampe mot Prestheia",
          "location": {
            "coordinates": {
              "latLon": {
                "lat": 58.16154,
                "lon": 8.019591
              }
            }
          }
        },
        {
          "id": "34573V930302",
          "name": "Skarsvågkrysset E69",
          "location": {
            "coordinates": {
              "latLon": {
                "lat": 71.091307,
                "lon": 25.781747
              }
            }
          }
        },
        {
          "id": "88604V443293",
          "name": "HOLSTAD KLIMA",
          "location": {
            "coordinates": {
              "latLon": {
                "lat": 59.685042,
                "lon": 10.830197
              }
            }
          }
        },
        {
          "id": "35666V443378",
          "name": "Uvesund bru",
          "location": {
            "coordinates": {
              "latLon": {
                "lat": 60.168679,
                "lon": 11.478854
              }
            }
          }
        },
        {
          "id": "06012V885929",
          "name": "Kalvik",
          "location": {
            "coordinates": {
              "latLon": {
                "lat": 67.511919,
                "lon": 15.57765
              }
            }
          }
        },
        {
          "id": "58509V804762",
          "name": "Rampe Arna til Osterøy",
          "location": {
            "coordinates": {
              "latLon": {
                "lat": 60.421662,
                "lon": 5.536833
              }
            }
          }
        },
        {
          "id": "41300V72150",
          "name": "Garli",
          "location": {
            "coordinates": {
              "latLon": {
                "lat": 62.891551,
                "lon": 10.102077
              }
            }
          }
        },
        {
          "id": "70836V249525",
          "name": "Flote",
          "location": {
            "coordinates": {
              "latLon": {
                "lat": 62.482661,
                "lon": 6.645682
              }
            }
          }
        },
        {
          "id": "41273V805613",
          "name": "Moberg v/Lekven",
          "location": {
            "coordinates": {
              "latLon": {
                "lat": 60.170324,
                "lon": 5.444239
              }
            }
          }
        },
        {
          "id": "25585V578602",
          "name": "Eggetunnelen",
          "location": {
            "coordinates": {
              "latLon": {
                "lat": 64.02323,
                "lon": 11.486983
              }
            }
          }
        },
        {
          "id": "12706V804742",
          "name": "Fløyfjelltunnelen - sentrum",
          "location": {
            "coordinates": {
              "latLon": {
                "lat": 60.383918,
                "lon": 5.336028
              }
            }
          }
        },
        {
          "id": "12510V521383",
          "name": "Sauland",
          "location": {
            "coordinates": {
              "latLon": {
                "lat": 59.617405,
                "lon": 8.936552
              }
            }
          }
        },
        {
          "id": "30703V180924",
          "name": "Eggemoen",
          "location": {
            "coordinates": {
              "latLon": {
                "lat": 60.197661,
                "lon": 10.283665
              }
            }
          }
        },
        {
          "id": "26266V443149",
          "name": "E6 NYE MOSS NORD",
          "location": {
            "coordinates": {
              "latLon": {
                "lat": 59.506168,
                "lon": 10.719651
              }
            }
          }
        },
        {
          "id": "03102V885959",
          "name": "E10 Sunklakk vest",
          "location": {
            "coordinates": {
              "latLon": {
                "lat": 68.269219,
                "lon": 14.150201
              }
            }
          }
        },
        {
          "id": "73809V805608",
          "name": "Sveio",
          "location": {
            "coordinates": {
              "latLon": {
                "lat": 59.624939,
                "lon": 5.484797
              }
            }
          }
        },
        {
          "id": "69255V249530",
          "name": "Astad",
          "location": {
            "coordinates": {
              "latLon": {
                "lat": 62.895626,
                "lon": 7.676484
              }
            }
          }
        },
        {
          "id": "60371V1719219",
          "name": "Solberg nord",
          "location": {
            "coordinates": {
              "latLon": {
                "lat": 59.23958,
                "lon": 11.134942
              }
            }
          }
        },
        {
          "id": "39054V444232",
          "name": "Høvik bru",
          "location": {
            "coordinates": {
              "latLon": {
                "lat": 59.900144,
                "lon": 10.581381
              }
            }
          }
        },
        {
          "id": "97410V1751020",
          "name": "Songefjell",
          "location": {
            "coordinates": {
              "latLon": {
                "lat": 58.247037,
                "lon": 8.309561
              }
            }
          }
        },
        {
          "id": "95011V1665559",
          "name": "E10 Gullesfjord øst",
          "location": {
            "coordinates": {
              "latLon": {
                "lat": 68.52961,
                "lon": 15.767247
              }
            }
          }
        },
        {
          "id": "52231V625294",
          "name": "E18-FROGNERSTR V/SK",
          "location": {
            "coordinates": {
              "latLon": {
                "lat": 59.914826,
                "lon": 10.698443
              }
            }
          }
        },
        {
          "id": "72406V625599",
          "name": "E6 Lodalen rampe Helsfyr Lodalen",
          "location": {
            "coordinates": {
              "latLon": {
                "lat": 59.903089,
                "lon": 10.782418
              }
            }
          }
        },
        {
          "id": "60303V930233",
          "name": "E6 Altaveien (ved sykkelpunkt)",
          "location": {
            "coordinates": {
              "latLon": {
                "lat": 69.971264,
                "lon": 23.278515
              }
            }
          }
        },
        {
          "id": "17291V181259",
          "name": "E18 Jensvoll",
          "location": {
            "coordinates": {
              "latLon": {
                "lat": 59.754429,
                "lon": 10.247715
              }
            }
          }
        },
        {
          "id": "65182V384013",
          "name": "Gudvangatunnelen",
          "location": {
            "coordinates": {
              "latLon": {
                "lat": 60.885464,
                "lon": 6.935677
              }
            }
          }
        },